{
  "events": [
    {
      "id": 1,
      "title": "Friendly Football",
      "fieldId": 2,
      "start": 1572184800,
      "end": 1572190200
    },
    {
      "id": 2,
      "title": "Kungsholmens Folkfotboll",
      "fieldId": 3,
      "start": 1572162600,
      "end": 1572166800
    },
    {
      "id": 3,
      "title": "SCBC Football Club",
      "fieldId": 6,
      "start": 1571941200,
      "end": 1571947200
    },
    {
      "id": 4,
      "title": "Korpen practice",
      "fieldId": 5,
      "start": 1572025800,
      "end": 1572030000
    },
    {
      "id": 5,
      "title": "Lappis Football",
      "fieldId": 1,
      "start": 1572112800,
      "end": null
    },
    {
      "id": 6,
      "title": "Lappis Football",
      "fieldId": 1,
      "start": 1572199200,
      "end": null
    },
    {
      "id": 7,
      "title": "SCBC Football Club",
      "fieldId": 6,
      "start": 1572546000,
      "end": 1572552000
    }
  ],
  "fields": [
    {
      "id": 1,
      "name": "Ekhagens BP",
      "address": {
        "street": "Åminnevägen 23",
        "city": "Stockholm",
        "zipcode": "104 05",
        "country": "Sweden",
        "location": {
          "lat": 59.370307,
          "lng": 18.055401
        }
      }
    },
    {
      "id": 2,
      "name": "Långholmens bollplan",
      "address": {
        "street": "Alstaviksvägen 9",
        "city": "Stockholm",
        "zipcode": "117 33",
        "country": "Sweden",
        "location": {
          "lat": 59.320351,
          "lng": 18.02859
        }
      }
    },
    {
      "id": 3,
      "name": "Stadshagens IP",
      "address": {
        "street": "Stadshagens Idrottsväg",
        "city": "Stockholm",
        "zipcode": "112 45",
        "country": "Sweden",
        "location": {
          "lat": 59.33615,
          "lng": 18.020432
        }
      }
    },
    {
      "id": 4,
      "name": "Enskede idrottsplats",
      "address": {
        "street": "Enskedevägen 115",
        "city": "Enskede",
        "zipcode": "122 63",
        "country": "Sweden",
        "location": {
          "lat": 59.281459,
          "lng": 18.071136
        }
      }
    },
    {
      "id": 5,
      "name": "Frescatihallen",
      "address": {
        "street": "Svante Arrhenius väg 4",
        "city": "Stockholm",
        "zipcode": "114 18",
        "country": "Sweden",
        "location": {
          "lat": 59.36636,
          "lng": 18.057878
        }
      }
    },
    {
      "id": 6,
      "name": "Axelsbergs Bollplan",
      "address": {
        "street": "Eolshällsvägen 1",
        "city": "Hägersten",
        "zipcode": "129 37",
        "country": "Sweden",
        "location": {
          "lat": 59.30566,
          "lng": 17.969849
        }
      }
    },
    {
      "id": 7,
      "name": "Kristinebergs Idrottsplats",
      "address": {
        "street": "Nordenflychtsvägen 46",
        "city": "Stockholm",
        "zipcode": "112 51",
        "country": "Sweden",
        "location": {
          "lat": 59.33667,
          "lng": 18.003775
        }
      }
    },
    {
      "id": 8,
      "name": "Bellevue bollplan",
      "address": {
        "street": "Brunnsviksvägen 10",
        "city": "Stockholm",
        "zipcode": "113 47",
        "country": "Sweden",
        "location": {
          "lat": 59.3530317,
          "lng": 18.0486676
        }
      }
    },
    {
      "id": 9,
      "name": "Gröndal BP",
      "address": {
        "street": "Gröndalsvägen 95",
        "city": "Stockholm",
        "zipcode": "117 68",
        "country": "Sweden",
        "location": {
          "lat": 59.31504,
          "lng": 18.002134
        }
      }
    },
    {
      "id": 10,
      "name": "Tantolundens BP",
      "address": {
        "street": "Zinkens Väg 20",
        "city": "Stockholm",
        "zipcode": "117 41",
        "country": "Sweden",
        "location": {
          "lat": 59.313137,
          "lng": 18.046848
        }
      }
    }
  ]
}